Stadium,City,Capacity,Lat,Lon
Al-Bayt Stadium,Al-Khor,68895,25.652222,51.4875
Lusail Stadium,Lusail,88966,25.420861,51.490389
Ahmad bin Ali Stadium,Al-Rayyan,45032,25.32964,51.342273
Education City Stadium,Al-Rayyan,44667,25.3108,51.4244
Khalifa International Stadium,Al-Rayyan,45857,25.258197,51.44819
Al Thumama Stadium,Doha,44400,25.263611,51.448056
Stadium 974,Doha,44089,25.288897,51.56649
Al Janoub Stadium,Al-Wakrah,44325,25.159778,51.574083
